{"type": "FeatureCollection", "features": [{"type": "Feature", "properties": {"brgy_name": "AMIHAN", "description": "<strong>AMIHAN</strong><p> Active Cases: 0</p><p> Total Cases: 790</p>"}, "geometry": {"type": "Point", "coordinates": [121.06774743380122, 14.632860824734806]}}, {"type": "Feature", "properties": {"brgy_name": "BAGUMBUHAY", "description": "<strong>BAGUMBUHAY</strong><p> Active Cases: 0</p><p> Total Cases: 1321</p>"}, "geometry": {"type": "Point", "coordinates": [121.06522287338686, 14.625026027384978]}}, {"type": "Feature", "properties": {"brgy_name": "BAGUMBAYAN", "description": "<strong>BAGUMBAYAN</strong><p> Active Cases: 1</p><p> Total Cases: 2541</p>"}, "geometry": {"type": "Point", "coordinates": [121.0811402631168, 14.607707023646341]}}, {"type": "Feature", "properties": {"brgy_name": "BAYANIHAN", "description": "<strong>BAYANIHAN</strong><p> Active Cases: 0</p><p> Total Cases: 156</p>"}, "geometry": {"type": "Point", "coordinates": [121.06968887316008, 14.614977336317379]}}, {"type": "Feature", "properties": {"brgy_name": "BLUE RIDGE A", "description": "<strong>BLUE RIDGE A</strong><p> Active Cases: 0</p><p> Total Cases: 242</p>"}, "geometry": {"type": "Point", "coordinates": [121.07315744147506, 14.619106596212324]}}, {"type": "Feature", "properties": {"brgy_name": "BLUE RIDGE B", "description": "<strong>BLUE RIDGE B</strong><p> Active Cases: 0</p><p> Total Cases: 219</p>"}, "geometry": {"type": "Point", "coordinates": [121.07519252641099, 14.618106002875207]}}, {"type": "Feature", "properties": {"brgy_name": "CAMP AGUINALDO", "description": "<strong>CAMP AGUINALDO</strong><p> Active Cases: 0</p><p> Total Cases: 1440</p>"}, "geometry": {"type": "Point", "coordinates": [121.06494252047794, 14.606234092343108]}}, {"type": "Feature", "properties": {"brgy_name": "CLARO", "description": "<strong>CLARO</strong><p> Active Cases: 0</p><p> Total Cases: 799</p>"}, "geometry": {"type": "Point", "coordinates": [121.06454390042872, 14.631549629743072]}}, {"type": "Feature", "properties": {"brgy_name": "DIOQUINO ZOBEL", "description": "<strong>DIOQUINO ZOBEL</strong><p> Active Cases: 0</p><p> Total Cases: 256</p>"}, "geometry": {"type": "Point", "coordinates": [121.0647579356538, 14.619785580594288]}}, {"type": "Feature", "properties": {"brgy_name": "DUYAN-DUYAN", "description": "<strong>DUYAN-DUYAN</strong><p> Active Cases: 0</p><p> Total Cases: 581</p>"}, "geometry": {"type": "Point", "coordinates": [121.06713471291715, 14.629732005509501]}}, {"type": "Feature", "properties": {"brgy_name": "E. RODRIGUEZ", "description": "<strong>E. RODRIGUEZ</strong><p> Active Cases: 0</p><p> Total Cases: 2456</p>"}, "geometry": {"type": "Point", "coordinates": [121.05240420234388, 14.626314638772715]}}, {"type": "Feature", "properties": {"brgy_name": "EAST KAMIAS", "description": "<strong>EAST KAMIAS</strong><p> Active Cases: 0</p><p> Total Cases: 1113</p>"}, "geometry": {"type": "Point", "coordinates": [121.05647404147571, 14.632472735132886]}}, {"type": "Feature", "properties": {"brgy_name": "ESCOPA I", "description": "<strong>ESCOPA I</strong><p> Active Cases: 0</p><p> Total Cases: 348</p>"}, "geometry": {"type": "Point", "coordinates": [121.07356273954514, 14.624268897374687]}}, {"type": "Feature", "properties": {"brgy_name": "ESCOPA II", "description": "<strong>ESCOPA II</strong><p> Active Cases: 0</p><p> Total Cases: 109</p>"}, "geometry": {"type": "Point", "coordinates": [121.07452800440434, 14.62439273970638]}}, {"type": "Feature", "properties": {"brgy_name": "ESCOPA III", "description": "<strong>ESCOPA III</strong><p> Active Cases: 0</p><p> Total Cases: 572</p>"}, "geometry": {"type": "Point", "coordinates": [121.07334039275811, 14.62679918129048]}}, {"type": "Feature", "properties": {"brgy_name": "ESCOPA IV", "description": "<strong>ESCOPA IV</strong><p> Active Cases: 0</p><p> Total Cases: 200</p>"}, "geometry": {"type": "Point", "coordinates": [121.0744357697459, 14.62548564029879]}}, {"type": "Feature", "properties": {"brgy_name": "LIBIS", "description": "<strong>LIBIS</strong><p> Active Cases: 0</p><p> Total Cases: 636</p>"}, "geometry": {"type": "Point", "coordinates": [121.07685685625187, 14.615820820257182]}}, {"type": "Feature", "properties": {"brgy_name": "LOYOLA HEIGHTS", "description": "<strong>LOYOLA HEIGHTS</strong><p> Active Cases: 1</p><p> Total Cases: 2583</p>"}, "geometry": {"type": "Point", "coordinates": [121.07497463638593, 14.638721305584003]}}, {"type": "Feature", "properties": {"brgy_name": "MANGGA", "description": "<strong>MANGGA</strong><p> Active Cases: 0</p><p> Total Cases: 152</p>"}, "geometry": {"type": "Point", "coordinates": [121.06209730227623, 14.625546850795505]}}, {"type": "Feature", "properties": {"brgy_name": "MARILAG", "description": "<strong>MARILAG</strong><p> Active Cases: 0</p><p> Total Cases: 1865</p>"}, "geometry": {"type": "Point", "coordinates": [121.06923519794655, 14.624847083496379]}}, {"type": "Feature", "properties": {"brgy_name": "MASAGANA", "description": "<strong>MASAGANA</strong><p> Active Cases: 1</p><p> Total Cases: 901</p>"}, "geometry": {"type": "Point", "coordinates": [121.06689062628736, 14.618462908282712]}}, {"type": "Feature", "properties": {"brgy_name": "MATANDANG BALARA", "description": "<strong>MATANDANG BALARA</strong><p> Active Cases: 1</p><p> Total Cases: 5887</p>"}, "geometry": {"type": "Point", "coordinates": [121.08095512098596, 14.666066163566152]}}, {"type": "Feature", "properties": {"brgy_name": "MILAGROSA", "description": "<strong>MILAGROSA</strong><p> Active Cases: 0</p><p> Total Cases: 1120</p>"}, "geometry": {"type": "Point", "coordinates": [121.06988312076108, 14.62033388351154]}}, {"type": "Feature", "properties": {"brgy_name": "PANSOL", "description": "<strong>PANSOL</strong><p> Active Cases: 1</p><p> Total Cases: 2153</p>"}, "geometry": {"type": "Point", "coordinates": [121.07994777390192, 14.651831430115283]}}, {"type": "Feature", "properties": {"brgy_name": "QUIRINO 2-A", "description": "<strong>QUIRINO 2-A</strong><p> Active Cases: 0</p><p> Total Cases: 830</p>"}, "geometry": {"type": "Point", "coordinates": [121.05920082153567, 14.629799959930434]}}, {"type": "Feature", "properties": {"brgy_name": "QUIRINO 2-B", "description": "<strong>QUIRINO 2-B</strong><p> Active Cases: 0</p><p> Total Cases: 819</p>"}, "geometry": {"type": "Point", "coordinates": [121.06151964998463, 14.633099416320889]}}, {"type": "Feature", "properties": {"brgy_name": "QUIRINO 2-C", "description": "<strong>QUIRINO 2-C</strong><p> Active Cases: 0</p><p> Total Cases: 438</p>"}, "geometry": {"type": "Point", "coordinates": [121.06311327894898, 14.634617567566922]}}, {"type": "Feature", "properties": {"brgy_name": "QUIRINO 3-A", "description": "<strong>QUIRINO 3-A</strong><p> Active Cases: 0</p><p> Total Cases: 268</p>"}, "geometry": {"type": "Point", "coordinates": [121.06356420327221, 14.628771242782395]}}, {"type": "Feature", "properties": {"brgy_name": "ST. IGNATIUS", "description": "<strong>ST. IGNATIUS</strong><p> Active Cases: 0</p><p> Total Cases: 306</p>"}, "geometry": {"type": "Point", "coordinates": [121.07293767597635, 14.613424856520737]}}, {"type": "Feature", "properties": {"brgy_name": "SAN ROQUE", "description": "<strong>SAN ROQUE</strong><p> Active Cases: 0</p><p> Total Cases: 2324</p>"}, "geometry": {"type": "Point", "coordinates": [121.06165221933777, 14.619877526296387]}}, {"type": "Feature", "properties": {"brgy_name": "SILANGAN", "description": "<strong>SILANGAN</strong><p> Active Cases: 0</p><p> Total Cases: 834</p>"}, "geometry": {"type": "Point", "coordinates": [121.05853076190158, 14.627151904924752]}}, {"type": "Feature", "properties": {"brgy_name": "SOCORRO", "description": "<strong>SOCORRO</strong><p> Active Cases: 1</p><p> Total Cases: 4980</p>"}, "geometry": {"type": "Point", "coordinates": [121.05601018986945, 14.617720864975482]}}, {"type": "Feature", "properties": {"brgy_name": "TAGUMPAY", "description": "<strong>TAGUMPAY</strong><p> Active Cases: 0</p><p> Total Cases: 229</p>"}, "geometry": {"type": "Point", "coordinates": [121.06387874532642, 14.6221782727751]}}, {"type": "Feature", "properties": {"brgy_name": "UGONG NORTE", "description": "<strong>UGONG NORTE</strong><p> Active Cases: 3</p><p> Total Cases: 1658</p>"}, "geometry": {"type": "Point", "coordinates": [121.07066893712744, 14.596896714873074]}}, {"type": "Feature", "properties": {"brgy_name": "VILLA MARIA CLARA", "description": "<strong>VILLA MARIA CLARA</strong><p> Active Cases: 0</p><p> Total Cases: 478</p>"}, "geometry": {"type": "Point", "coordinates": [121.06879127285012, 14.61675947033085]}}, {"type": "Feature", "properties": {"brgy_name": "WEST KAMIAS", "description": "<strong>WEST KAMIAS</strong><p> Active Cases: 0</p><p> Total Cases: 819</p>"}, "geometry": {"type": "Point", "coordinates": [121.04951887959488, 14.631091829883234]}}, {"type": "Feature", "properties": {"brgy_name": "WHITE PLAINS", "description": "<strong>WHITE PLAINS</strong><p> Active Cases: 1</p><p> Total Cases: 634</p>"}, "geometry": {"type": "Point", "coordinates": [121.07298493939753, 14.606409921438644]}}]}